fpkLocId,fldLocName,fldLatitude,fldLongitude
DHS (102),"16801 Pacific Coast Highway, Bel Air Bay Club (chain fence) (through 10/04)",,
OCS3,2000' south of SERRA Outfall,33.45938,-117.6763
OSL04,9th St. 1000 Steps Beach,33.497861,-117.741792
LACSD2,Abalone Cove Shoreline Park (aka SMB-7-4),33.741585,-118.379189
ACN15,Alameda Point Mid,37.769078,-122.291379
ACN10,Alameda Point North,37.7694,-122.29137
ACN20,Alameda Point South,37.76886,-122.29137
B29,Alamitos Bay - 1st & Bayshore,33.755202,-118.131713
B67,Alamitos Bay - 2nd St. Bridge & Bayshore,33.757741,-118.13016
B31,Alamitos Bay - 56th Place - on bayside,33.75118333,-118.125783333
B69,Alamitos Bay - Division Street and Bayshore,33.756313,-118.131158
B14,Alamitos Bay - shore float,33.75416667,-118.13095
OSL09,Aliso Creek - outlet,33.510081,-117.752961
OSL08,Aliso Creek- 1000' south,33.508253,-117.751837
OSL85,"Aliso Creek Beach, projection of Aliso Beach entrance",33.50913,-117.752474
OCN3,Aliso Creek Ocean Interface (Point Zero) (Beginning March 2015),33.51051,-117.75286
SMC230,Aquatic Park,37.560274,-122.291122
SFC10,"Aquatic Park Beach, 211 Station",37.807677,-122.422214
SFC00,"Aquatic Park Beach, Hyde St. Pier (proj. of Larkin St.)",37.8089,-122.421166666
SBC11,Arroyo Burro Beach,34.40218,-119.742308
SBC5,Arroyo Quemada,34.470167,-120.118972
DHS (106a),Ashland Av. storm drain- 50 yards north,,
S7,Ashland Av. storm drain- 50 yards south (through 10/04),,
MON50,"Asilomar State Beach, projection of Arena Av.",36.627021,-121.938322
DHS (117),Avalon Beach - 100 feet east of the Green Pleasure Pier,33.343085,-118.324197
DHS (120),Avalon Beach - 100 feet west of the Green Pleasure Pier,33.344138,-118.32568
DHS (118),Avalon Beach - 50 feet east of the Green Pleasure Pier,33.343383,-118.324613
DHS (119),Avalon Beach - 50 feet west of the Green Pleasure Pier,33.343862,-118.325299
DHS (121),Avalon Beach - east of the Casino Arch at the steps,33.34527,-118.32674
DPH 124,Avalon Beach- 50 yards north of Pier,33.351218,-118.328616
DHS (122)99,Avalon Beach- 50 yards south of Pier,,
DHS (125)99,Avalon Beach- adjacent to Busy Bee Rest.,,
DHS (121)99,Avalon Beach- South End,,
DPH 123,Avalon Beach- underneath Pier,33.35074,-118.32843
IB079,"Avenida Lunar, Coronado City beaches",32.674066,-117.1723
AB10,"Avila Beach, 350 yards west of pier at creek outfall",35.17916,-120.74048
AB9,"Avila Beach, projection of San Juan Street",35.178392,-120.736801
AB8,"Avila Beach, projection of San Luis Street",35.177793,-120.732926
MdRH-8b,Back of main channel (at depth),,
MdRH-8,Back of main channel (from surface),,
BC020,"Baja California Mexico, El Vigia MEX",32.5434,-117.1252
BC010,"Baja California Mexico, Playas Blanca MEX",32.53442,-117.124
BC030,"Baja California Mexico, Playas De Tijuana MEX",32.528416,-117.125834
SFC70,"Baker Beach East, Ocean #15East",37.792149,-122.484946
SFC90,"Baker Beach West, Ocean #16",37.789783,-122.487303
MC280,"Baker Beach, Horseshoe Cove NE",37.8335,-122.4747
MC270,"Baker Beach, Horseshoe Cove NW",37.8332,-122.4778
MC260,"Baker Beach, Horseshoe Cove SW",37.8321,-122.4774
SFC80,"Baker Beach, Lobos Creek",37.790485,-122.486238
ONB21,Balboa Beach Pier,33.60085,-117.902853
ONB15,"Balboa Beach, projection of 15th/16th Street",33.605207,-117.921962
ONB27,"Balboa Beach, The Wedge",33.59369,-117.881662
S10,Ballona Creek entrance- 50 yards south (through 10/04),,
MdRH-10,"Basin A, back of basin",,
MdRH-11,"Basin B, back of basin",,
MdRH-12,"Basin C, back of basin",,
MdRH-4b,"Basin D, near first slip outside swim area (at depth)",,
MdRH-4,"Basin D, near first slip outside swim area (from surface)",,
MdRH-6b,"Basin E, center of basin (at depth)",,
MdRH-6,"Basin E, center of basin (from surface)",,
MdRH-7,"Basin E, in front of Boone-Olive Pump Outlet",,
MdRH-5,"Basin E, in front of tide gate from Oxford Basin",,
MdRH-9b,"Basin F, center of basin (at depth)",,
MdRH-9,"Basin F, center of basin (from surface)",,
MdRH-13,"Basin G, back of basin",,
MdRH-14,"Basin H, back of basin",,
SMC190,Bean Hollow State Beach,37.225422,-122.40918
B3,Belmont Pier-eastside (use to be mid-pier),33.75763333,-118.147483333
B4,Belmont Pier-off end,,
B8,Belmont Pier-westside,33.75803333,-118.149033333
OCN18,Between Pearl & Agate Street (point zero) (beginning April 2015),33.52809,-117.77275
Men50,Big River near PCH,39.302299,-123.793009
DHS (001),Big Rock Beach at 19948 PCH stairs (aka SMB-1-15),34.036408,-118.609515
SON20,Black Point Beach,38.68336439,-123.432257411
OCR10,Blue Lagoon (point zero) (beginning March 2015),33.516805,-117.76137
OLB13,Blue Lagoon (Through March 2015),33.516805,-117.76137
OCN16,Boca del Canon Beach (Point Zero) (Beginning March 2015),33.41295,-117.61402
MC150,Bolinas Beach (Wharf Rd),37.9052,-122.683
OHB39,Bolsa Chica Beach across from the Reserve Flood Gates,33.701814,-118.055228
OHB33,Bolsa Chica Reserve at the downcoast end of the State Beach,33.688065,-118.042182
IB010,"Border Field State Park, Border Fence (northside)",32.5353,-117.125
IB020,"Border Field State Park, proj. of Monument Rd.",32.5433,-117.125
DHS (010a),Broad Beach,,
SMB-1-4,Broad Beach at Trancas Creek mouth (point zero),34.028858,-118.842711
SBC16,Butterfly Beach,34.417278,-119.647556
VC37000,C. I. Harbor-Beach Park at S. end of Victoria Av.,34.159515,-119.222295
VC37001,"C. I. Harbor-Beach Park at S. end of Victoria Av., 50' north (Through 2007)",34.159792,-119.22242
VC37002,"C. I. Harbor-Beach Park at S. end of Victoria Av., 50' south (Through 2007)",34.159272,-119.222239
VC37500,C.I. Harbor - Beach Park at the end of Rocks (Through 2008),34.158099,-119.224338
VC36000,C.I. Harbor-Hobie Beach Lakshore Dr.,34.161067,-119.222251
CB1,Cabrillo Beach - harborside at boat launch,33.713392,-118.283884
CBS,Cabrillo Beach - harborside at lifeguard tower,33.710669,-118.282884
CB2,Cabrillo Beach - harborside at restrooms,33.71116,-118.282941
LACSD7,"Cabrillo Beach, oceanside (aka SMB-7-9)",33.708894,-118.284008
OSL07,Camel Point,33.507,-117.751
EH500,"Camp Pendleton, Camp del Mar (near 9th St.)",33.21835,-117.40617
SON60,Campbell Cove State Park Beach,38.30491062,-123.05711603
SFC170,"Candlestick Point, Jackrabbit Beach",37.71143333,-122.380083333
SFC190,"Candlestick Point, Sunnydale Cove",37.70955,-122.389883333
SFC180,"Candlestick Point, Windsurfer Circle",37.70913333,-122.3823
OCN8,Capistano Bay Community Beach (Point Zero) (Beginning March 2015),33.45281,-117.66557
OCN7,Capistrano County Beach drain (Point Zero) (Beginning March 2015),33.45344,-117.66697
OCN10,Capistrano Shores North (Point Zero) (Beginning March 2015),33.4352,-117.63807
OCN11,Capistrano Shores South (Point Zero) (Beginning March 2015),33.43271,-117.63484
SCC190,Capitola Beach east of jetty,36.971748,-121.949735
SCC180,Capitola Beach west of jetty,36.971191,-121.951009
SCC170,"Capitola Beach, east of the Capitola Pier",,
SCC160,"Capitola, Hooper's Beach",,
SMB-1-13,Carbon Beach at Sweetwater Canyon,34.037801,-118.673876
SE050,Cardiff State Beach Charthouse parking (slight S. of Kilkeny),33.011892,-117.279937
SE040,"Cardiff State Beach, Las Olas (100 yds. south of Charthouse )",33.010759,-117.279654
SE060,"Cardiff State Beach, San Elijo Lagoon outlet",33.015493,-117.281556
SE030,"Cardiff State Beach, Seaside State Park",33.002648,-117.278486
EH450,"Carlsbad, Aqua Hedionda (boat launch)",,
EH440,"Carlsbad, Batiquitos Lagoon outlet",33.086647,-117.313137
EN030,"Carlsbad, Encina Creek outlet",33.115747,-117.325412
EH475,"Carlsbad, projection of Carlsbad Village Drive",33.156731,-117.353563
EN050,"Carlsbad, projection of Cerezo Drive",33.128113,-117.333402
EN040,"Carlsbad, projection of Palomar Airport Rd.",33.125638,-117.331312
EH470,"Carlsbad, projection of Pine Av.",33.1554,-117.3514
EN010,"Carlsbad, projection of Poinsettia Lane",33.100545,-117.319229
EN020,"Carlsbad, projection of Ponto Drive",33.110843,-117.323443
EH460,"Carlsbad, projection of Tamarack Av.",33.145381,-117.34517
EH455,"Carlsbad, warm water jetty",33.137753,-117.33932
MON80,"Carmel City Beach, projection of Ocean Ave. (west end)",36.555113,-121.931358
SBC18,Carpinteria City Beach,34.393167,-119.524944
SBC19,Carpinteria State Beach,34.389917,-119.519583
Men30,Caspar Beach at Caspar Creek,39.361952,-123.817857
SMB-2-1,Castlerock Storm Drain at Castle Rock Beach,34.041217,-118.567034
CAY16,"Cayucos Beach, North of pier at outfall",35.44904,-120.90792
CAY14,"Cayucos State Beach, downcoast of the pier",35.447994,-120.905312
CAY15,"Cayucos State Beach, half-way between Cayucos Creek and the Pier",35.448727,-120.907047
MC70,Chicken Ranch Beach at Channel.,,
MC80,Chicken Ranch Beach at Creek,38.1097,-122.8646
SFC100,"China Beach, end of Sea Cliff Ave.",37.788216,-122.491147
MC310,China Camp,38.0004,-122.461
HC40,Clam Beach County Park near Strawberry Creek,40.987639,-124.121466
OCN2,Cleo Street (Point Zero) (Beginning March 2015),33.53691,-117.78108
EH303,Coast Blvd. (the Gazebo),32.844069,-117.279803
B26,Colorado Lagoon-center,33.77105,-118.134666666
B25,Colorado Lagoon-north,33.77133333,-118.13405
B24,Colorado Lagoon-south,33.77053333,-118.134583333
SCC147,Corcoran Lagoon Beach,36.959829,-121.986315
OCS29,Corona Del Mar (CSDOC),33.59303,-117.875571
ONB29,Corona Del Mar Beach,,
EH062,Coronado at North Beach (NASNI Beach),32.6867,-117.199866
EH060,Coronado at North Beach (near navy fence at Ocean Blvd.),32.68584,-117.193687
IB080,"Coronado, projection of Ave del Sol",32.677852,-117.177486
EH050,"Coronado, projection of Loma Ave.",32.681959,-117.184577
IB070,"Coronado, Silver Strand",32.630331,-117.144
DHS (005a),Corral State Beach,,
VC49000,County Line Beach - south of creek (Through 2014),34.052328,-118.963484
VC49500,County Line Beach point zero (Beginning 2015),34.052328,-118.963484
SCC90,Cowell Beach at the Stairs,36.957728,-122.025704
SCCO490,Cowell Beach Lifeguard Tower 1,36.961244,-122.023799
SCCO4905,Cowell Beach west edge of Dream Inn,36.960293,-122.024665
SCC100,"Cowell Beach, west of the wharf",36.961891,-122.023084
SMC220,Coyote Point,37.59018719,-122.324605553
"SF230
SF20
SF230",Crane Cove Park,37.763431,-122.386861
OLB05,Crescent Bay Beach,33.546404,-117.80152
DN001,Crescent City - Battery Point Lighthouse,41.745084,-124.201652
SFC30,"Crissy Field Beach East, 202.4 Station",37.806571,-122.451804
SFC65,Crissy Field Beach West 202.5 station,37.806977,-122.468534
SFC50,"Crissy Field Beach West, 202.2 Station",37.80573333,-122.4569
SFC60,"Crissy Field Beach, Coast Guard Station",,
SFC40,"Crissy Field Beach, Lagoon mouth",,
SFC20,"Crissy Field Beach, St. Francis Yacht Club",,
AC03,Crown Beach 2001 Shoreline Dr.,37.757306,-122.259216
AC00,Crown Beach Bath House,37.765825,-122.27506
AC04,Crown Beach Bird Sanctuary,37.753987,-122.250771
AC05,Crown Beach Crab Cove,37.768158,-122.27633
AC02,Crown Beach Sunset Rd.,37.759396,-122.265284
AC01,Crown Beach Windsurfer Corner,37.762876,-122.27274
OCS39,Crystal Cove (CSDOC),33.573805,-117.840761
ONB39,Crystal Cove (weekly),33.578324,-117.849037
ODB01,Dana Point - Capistrano County Beach (5000' south of SERRA Outfall),33.4545,-117.66827
OCB11,Dana Point - Projection of Camino Estrella (7500' South Outfall),33.4509,-117.66137
OCB13,Dana Point - South Capistrano Bay Community Beach (10000' south of SERRA Outfall),33.447602,-117.655577
BDP13,Dana Point Harbor Baby Beach - Buoy Line,33.4627,-117.70505
BDP15,Dana Point Harbor Baby Beach - East End,33.462434,-117.704098
BDP14,Dana Point Harbor Baby Beach - Swim Area,33.46263,-117.70469
BDP12,Dana Point Harbor Baby Beach - West End,33.463,-117.70566
BDP07,Dana Point Harbor Fuel Dock,33.4595,-117.6905
MDP11,Dana Point Harbor Guest Dock,33.462005,-117.703414
BDP08,Dana Point Harbor Pier,33.46133,-117.7055
BDP17,Dana Point Harbor Youth Dock,33.461892,-117.70427
MDP10,"Dana Point Harbor, Harbor Patrol Dock",33.45845,-117.6935518
MDP18,"Dana Point Harbor, M Dock (East Basin)",33.46031,-117.6961325
BDP16,"Dana Point Harbor, Pilgrim Dock",33.46166,-117.7058333
ODP01,Dana Strands Beach (AWMA),33.469126,-117.718022
SCC40,Davenport Beach at San Vicente Creek,37.009248,-122.193937
SCC30,Davenport Landing Beach at Molino Creek,,
VC48000,"Deer Creek, 50 yds. so. of the creek mouth (Through 2008)",34.061835,-118.985829
EH355,"Del Mar, projection of 12th Street",32.9556,-117.26785
EH360,"Del Mar, projection of 15th Street",32.95997,-117.26873
EH370,"Del Mar, projection of 17th Street",32.96239,-117.26873
EH380,"Del Mar, San Dieguito River Beach",32.97468,-117.27061
SS (123),Descanso Bay - between fire pits (*back to DPH 123 so SS (123) is inactive 2/10/20),33.35074,-118.32843
SS (124),Descanso Bay - end of beach (*back to DPH 124 so SS (124) is inactive 2/10/20),33.351218,-118.328616
MC10,Dillon Beach,38.249069,-122.969253
OCN1,Diver's Cove (Point Zero) (Beginning March 2015),33.54475,-117.79458
SMB-BC-1,Dockweiler State Beach at Ballona Creek mouth (point zero) (new 2017),33.960747,-118.457606
S11,Dockweiler State Beach at Culver Blvd. drain (aka SMB-2-10),33.956461,-118.451844
DHS (112),Dockweiler State Beach at Grand Ave. drain (aka SMB-2-15),33.915612,-118.429727
DHS (112)B,Dockweiler State Beach at Grand Ave. 50 yards south of storm drain,,
SMB-2-13,Dockweiler State Beach at Imperial Hwy drain (point zero),33.93006,-118.437131
DHS (110),Dockweiler State Beach at World Way (south of D&W jetty) (aka SMB-2-12),33.9387,-118.441
OCN6,Doheny Beach - South Day Use Area drain (Point Zero) (Beginning March 2015),33.4603,-117.67764
ODB05,Doheny Beach (So. of San Juan Creek),33.461078,-117.681121
OCS7,Doheny State Beach - End of the Park (4000' south of SERRA Outfall)  (Through March 2015),33.456101,-117.670764
OCR13,Doheny State Beach - End of the Park (point zero) (beginning March 2015),33.456101,-117.670764
OCS1,Doheny State Beach - Last Campground (1000' south of SERRA Outfall),33.460591,-117.679139
ODB04,Doheny State Beach - Mid Beach north of San Juan Creek,33.461744,-117.686556
ODB02,Doheny State Beach - North Beach  (Through March 2015),33.461012,-117.689333
OCR12,Doheny State Beach - North Beach (point zero) (beginning March 2015),33.461012,-117.689333
ODB03,Doheny State Beach - Pedestrian Bridge (3000' south of SERRA Outfall),33.457748,-117.6735
OCS0,Doheny State Beach - San Juan Creek Interface,33.4616,-117.68261
SON70,Doran Regional Park Beach,38.31311682,-123.043051164
MC130,Drakes Beach,38.0273,-122.9615
MC135,Drakes Estero,38.0828,-122.9328
SMC135,Dunes Beach,37.483304,-122.4534
SBC14,East Beach @ Bath House,,
SBC13,East Beach @ Mission Creek,34.412306,-119.685417
SBC15,East Beach @ Sycamore Creek,34.416224,-119.666549
SBC7,El Capitan State Beach,34.457972,-120.021861
OCR4,El Moro Beach (point zero) (Beginning March 2015),33.56023,-117.82205
ONB45,El Moro Beach (Through March 2015),33.55989,-117.82153
SMB-1-2,"El Pescador State Beach, between Lachusa and Los Aliso creeks",34.039487,-118.896892
OLB10,Emerald Bay (Through March 2015),33.551014,-117.808629
OCR5,Emerald Bay Beach (Point zero) (Beginning March 2015),33.55099,-117.80801
VC11000,Emma Wood State Beach (50 yards S. of first drain),34.291346,-119.338453
SMB-1-3,Encinal Canyon at El Matador State Beach,34.03664,-118.870537
EH420,"Encinitas, Moonlight Beach (Cottonwood Creek outlet)",33.048049,-117.298693
EH403,"Encinitas, San Elijo State Beach, north end",,
SE070,"Encinitas, San Elijo State Park (proj. Liverpool Dr.)",33.02057,-117.284908
SE080,"Encinitas, San Elijo State Park, north end of State Park stairs",33.028056,-117.2885
EH400,"Encinitas, San Elijo State Park, Pipes surf break",33.024427,-117.286615
EH405,"Encinitas, Swami's Beach (mid-beach)",33.0295,-117.2886
EH410,"Encinitas, Swami's Beach (Seacliff Park)",33.034314,-117.292326
SMC260,Erckenbrack Park (beginning 2018),37.563376,-122.26048
SMB-1-8,"Escondido Creek, just east of Escondido State Beach",34.025268,-118.765789
VC7000,Faria County Park - stairs,34.319105,-119.391617
MB086,"Fiesta Island - NE Shore, Mission Bay",32.7892,-117.2134
SMC70,Fitzgerald Marine Reserve at San Vicente Creek,37.524251,-122.517974
SFC160,"Fort Funston, opposite Lake Merced overflow structure",37.71525,-122.504683333
SCC55,Four mile Beach,,
SMC150,Francis Beach at the foot of the steps,37.467207,-122.446915
SBC4,Gaviota State Beach,34.47078,-120.225392
SMC200,Gazos Beach at Gazos Creek,37.16508,-122.363199
SON40,Goat Rock State Park Beach,38.44074194,-123.125474992
MC90,Golden Hinde,,
SBC9,Goleta Beach,34.416405,-119.826918
SMC55,Gray Whale Cove,37.564438,-122.514268
Men80,Greenwood Creek Project at Greenwood Creek,,
SBC1,Guadalupe Dunes,34.966372,-120.65138
SON10,Gualala Regional Park Beach,38.76221725,-123.531647632
SMC125,Gull Park Foster City,37.56658,-122.26061
SBC17,Hammond’s Beach,34.416917,-119.63425
Men27,Hare Creekbg,39.417424,-123.812804
SBC75,Haskell's Beach (btwn. Tecolote and Winchester Cyn Creeks),34.431088,-119.917304
HAZ10,"Hazard Canyon, Montana De Oro State Park",35.28933056,-120.8832528
HSB23,"Hearst Memorial State Beach, 100 yards west of the pier at creek outfall",35.64288,-121.18897
HSB24,Hearst State Beach east of pier,35.6429504,-121.187299048
HSB25,Hearst State Beach west of pier,35.64301372,-121.188309001
MC50,Heart's Desire,38.1326,-122.8934
S15,Hermosa Beach Pier- 50 yards south (aka SMB-5-5),33.8612,-118.402974
DHS (114),Hermosa City Beach at 26th St. (aka SMB-5-4),33.871366,-118.407258
DPH 115,Herondo Street storm drain- (in front of the drain) (aka SMB-6-1),33.851911,-118.399707
SCC230,Hidden Beach,36.956925,-121.88905
VC5000,"Hobson County Park, base of stairs to the beach",34.337613,-119.411859
VC34000,Hollywood Beach - La Crescenta St. (south of drain),34.168523,-119.233244
VC35000,Hollywood Beach - Los Robles St. (south of drain),34.163098,-119.230702
SBC10,Hope Ranch Beach,34.4145,-119.780111
OHB27,"Huntington City Beach, Bluffs",33.67565,-118.02853
OHB15,"Huntington City Beach, Jack's Snack Bar at Huntington St.",33.651258,-117.996955
OHB21,"Huntington City Beach, projection of 17th Street",33.663642,-118.013464
OHB12,"Huntington City Beach, projection of Beach Blvd.",33.645938,-117.988109
BHH04,"Huntington Harbor, 11th Street Beach",33.71718,-118.06924
BHH16,"Huntington Harbor, Coral Cay Beach",33.71622,-118.064446
MHH10,"Huntington Harbor, Davenport Beach",33.716928,-118.05817
BHH06,"Huntington Harbor, Humboldt Beach",33.725343,-118.056506
BHH15,"Huntington Harbor, Mothers Beach-Orange County",33.726395,-118.071166
BHH09,"Huntington Harbor, Seagate Lagoon",33.72895,-118.0647
BHH12,"Huntington Harbor, Trinidad Lane Beach",33.726636,-118.065782
BHH13,Huntington Harbour Channel Beach,33.71966,-118.0648333
BHH11,"Huntington Harbour, Admiralty Drive Beach",33.72083,-118.0711667
BHH05,"Huntington Harbour, Anaheim Bay-Gas Dock",33.71183,-118.0816667
MHH14,"Huntington Harbour, Anderson Street Marina",33.72533,-118.0766667
MHH01,"Huntington Harbour, Clubhouse Marina",33.71213,-118.0555441
MHH07,"Huntington Harbour, Sunset Aquatic Park Beach",33.72783,-118.0756667
OHB03,"Huntington State Beach, projection of Brookhurst Street",33.632909,-117.966236
OHB06,"Huntington State Beach, projection of Magnolia Street",33.638235,-117.975552
OHB09,"Huntington State Beach, projection of Newland St. (SCE Plant)",33.6417,-117.98126
SF210,Hyde Street Pier,37.80899,-122.4212947
DHS (111),Hyperion Treatment Plant One Mile Outfall (aka SMB-2-14),33.918933,-118.431592
EH041,"Imperial Beach, Camp Surf Jetty",32.587763,-117.132753
EH030,"Imperial Beach, Imperial Beach Pier",32.579416,-117.132953
EH020,"Imperial Beach, proj. of Imperial Beach Blvd.",32.57675,-117.13289
IB060,"Imperial Beach, projection of Carnation Ave.",32.585643,-117.132675
EH010,"Imperial Beach, projection of Cortez Ave.",32.57269,-117.13268
PL010,"Imperial Beach, projection of Palm Ave.",32.5847,-117.133
IB050,"Imperial Beach, southend of Seacoast Dr.",32.566363,-117.132747
S12,Imperial HWY storm drain- 50 yards north (through 10/04),,
SFC200,Islais Landing at Islais Creek (Beginning 2015),37.747083,-122.387917
SBC3,Jalama Beach,34.511367,-120.50355
MC120,Kehoe Beach,38.154539,-122.950206
CC01,Keller Beach Mid Beach,37.920813,-122.386727
CC00,Keller Beach North Beach,37.92105,-122.386938
CC02,Keller Beach South Beach,37.920659,-122.386572
SMC250,Kiteboard Beach,37.571472,-122.278788
VC2000,"La Conchita Beach, 50 yds. so. of the drain, Ocean View Rd. (Through 2008)",34.368704,-119.454692
VC2500,"La Conchita Beach, point zero, Ocean View Rd. (Beginning 2015)",34.368704,-119.454692
FM090,"La Jolla (north), Black's Beach (at the end of trail path)",32.8775,-117.251
EH350,"La Jolla (north), Scripps Pier",32.865861,-117.254683
SI010,"La Jolla Shores Beach, 1000 ft south of Scripps Pier",32.86353,-117.25508
SI020,"La Jolla Shores Beach, 250 feet sout of Scripps Pier",32.86548,-117.2546
SI030,"La Jolla Shores Beach, 500 feet north of Scripps Pier",32.86768,-117.25413
EH330,"La Jolla Shores Beach, Del Oro",32.859,-117.256
EH340,"La Jolla Shores, El Paseo Grande (near Scripps)",32.86294,-117.25566
FM080,"La Jolla Shores, projection of Ave De La Playa",32.854782,-117.259467
CSD009,"La Jolla Shores, Roseland Dr",32.852138,-117.26111
EH310,"La Jolla, Children's Pool",32.8475,-117.2782
EH309,"La Jolla, Children's Pool (other-distances vary)",,
FM060,"La Jolla, Coast Blvd. (north of Nicholson Pt.)",32.8395,-117.2825
FM070,"La Jolla, La Jolla Cove",32.850341,-117.272676
FM040,"La Jolla, projection of Bird Rock Av.",32.8167,-117.2732
EH260,"La Jolla, projection of Palomar Av.",32.82605,-117.27983
EH320,"La Jolla, projection of Vallecitos",32.85562,-117.25819
EH290,"La Jolla, projection of Vista De La Playa",32.8342,-117.28168
EH300,"La Jolla, Ravina (south of Nicholson Pt.)",32.839328,-117.281893
EH305,"La Jolla, South Casa Beach",32.846775,-117.278858
FM050,"La Jolla, Windansea Beach (proj. of Bonair St.)",32.8298,-117.2813
DHS (109c),LAC Fire Dock,,
OCS12,Laguna Beach - Goff Island Beach,33.514351,-117.75895
SCC50,Laguna Beach at Laguna Creek,,
OCR7,Laguna Hotel (point zero) (beginning March 2015),33.540585,-117.784016
OLB16,Laguna Hotel (Through March 2015),33.540585,-117.784016
OSL05,Laguna Lido Apt.,33.50051,-117.74504
OCR6,Laguna Main Beach (point zero) (beginning March 2015),33.542282,-117.78657
OLB00,Laguna Main Beach (Through March 2015),33.542282,-117.78657
SMC240,Lakeshore Park - behind Rec Center,37.549547,-122.285857
DHS (001a),Las Flores Beach (through 10/04),,
SMB-1-14,Las Flores State Beach at Las Flores Creek (point zero),34.036073,-118.636588
DHS (005),Latigo Canyon Creek entrance (through 10/04),,
SMB-1-9,Latigo Canyon Creek mouth (point zero),34.028706,-118.753503
MC20,Lawson's Landing,38.231617,-122.967841
SBC12,Leadbetter Beach,34.402404,-119.695025
CMB21,"Leffingwell Landing, Cambria",,
SMB-1-1,Leo Carrillo Beach at Arroyo Sequit Creek mouth (point zero),34.044309,-118.933493
DHS (010),"Leo Carrillo Beach, at 35000 PCH (through 10/04)",,
EH430,"Leucadia, Beacons Beach (proj. of Leucadia Blvd.)",,
EH435,"Leucadia, projection of Grandview St.",33.0295,-117.3089
SCC80,Lighthouse Beach (Steamer Lane),36.951646,-122.028639
MC140,Limantour Beach,38.0253,-122.8834
OCN14,Linda Lane Beach (Point Zero) (Beginning March 2015),33.42261,-117.62372
SMC50,Linda Mar Beach at San Pedro Creek,37.596716,-122.505837
SMC40,"Linda Mar Beach, projection of Crespi Dr.",37.600242,-122.5014
OCR1,Little Corona Beach (Beginning March 2015),33.58982,-117.86869
ONB31,Little Corona Beach (Through March 2015),33.589754,-117.868758
B56,"Long Beach City Beach, projection of 10th Place",33.763377,-118.173642
B6,"Long Beach City Beach, projection of 16th Place",33.762625,-118.167949
B62,"Long Beach City Beach, projection of 36th Place",33.75868333,-118.151283333
B63,"Long Beach City Beach, projection of 3rd Place",33.763221,-118.179647
B65,"Long Beach City Beach, projection of 54th Place",33.75156667,-118.133483333
B10,"Long Beach City Beach, projection of 55th Place",33.75013333,-118.129883333
B5,"Long Beach City Beach, projection of 5th Place",33.763392,-118.178218
B66,"Long Beach City Beach, projection of 62nd Place",33.74763333,-118.123433333
B11,"Long Beach City Beach, projection of 72nd Place",33.74515,-118.119183333
B7,"Long Beach City Beach, projection of Coronado Ave.",33.7597,-118.154933333
B64,"Long Beach City Beach, projection of Granada Av.",33.75435,-118.14
B60,"Long Beach City Beach, projection of Molino Av.",33.76139,-118.16227
B9,"Long Beach City Beach, projection of Prospect Av.",33.7562,-118.143966666
LACSD1,"Long Point, Rancho Palos Verdes (aka SMB-7-3)",33.7409,-118.404
MON40,"Lover's Point Park, projection of 16th Street",36.624874,-121.9163
HC20,Luffenholtz Beach near Luffenholtz Creek,41.04197,-124.120654
Men10,MacKerricher State Park at Mill Creek,39.489643,-123.798936
Men20,MacKerricher State Park at Virgin Creek,39.472924,-123.805288
HC50,Mad River Mouth (north),40.953353,-124.12959
SMB-O-9,"Malaga Cove, 50 yards downcoast of Palos Verdes Swim/Beach Club",,
LACSDM,"Malaga Cove, Palos Verdes Estates - at rocks (aka SMB-7-1)",33.803421,-118.396134
S18,"Malaga Cove, Palos Verdes Estates - at trail outlet (aka SMB-6-6)",33.804349,-118.394659
DHS (002),Malibu Pier- 50 yards east (aka SMB-MC-3),34.037138,-118.675995
DHS (003),Malibu Point (aka SMB-MC-1),34.030707,-118.682622
VC8100,Mandos Cove - point zero (Beginning 2015),34.321031,-119.37521
VC8000,Mandos Cove - south of drain (through 2014),34.321031,-119.37521
DPH 113,Manhattan Beach at 28th St. drain (aka SMB-5-2),33.894457,-118.418925
DPH 113B,28th Street 50 yards south of storm drain,,
S14,Manhattan Beach Pier- 50 yards south (through 10/04),,
SMB-5-3,Manhattan Beach Pier drain (point zero),33.883814,-118.413234
SMB-O-6,"Manhattan Beach, projection of 29th Street",,
S13,Manhattan State Beach at 40th Street (aka SMB-5-1),33.901799,-118.422003
SCC240,Manresa Beach,36.931881,-121.863115
SMB-1-12,"Marie Canyon storm drain at Puerco Beach, at 24572 Malibu Rd.",34.030416,-118.711263
DHS (109d),"Marina del Rey, Basin H- boat launch",,
DHS (201),"Marina del Rey, Mothers' Beach-25 ft. inside north end",,
DHS (202),"Marina del Rey, Mothers' Beach-25 ft. inside south end",,
DHS (109b),"Marina del Rey, Mothers' Beach-btwn. Tower and Boat dock (aka MdRH-3)",33.9817,-118.457
S9,"Marina del Rey, Mothers' Beach-lifeguard tower (aka MdRH-2)",33.980758,-118.457791
DHS (109a),"Marina del Rey, Mothers' Beach-Playground area (aka MdRH-1)",33.979872,-118.457486
VC22000,Marina Park (Beach at N. end of playground),34.253824,-119.269774
OCS6,Marine Science Institute Beach (SERRA),33.4604,-117.707977
OCN13,Mariposa Beach (point Zero) (Beginning March 2015),33.4241,-117.62558
SMC270,"Marlin Park, Foster City (beginning 2018)",37.55875,-122.254028
SMB-O-5,"Marquez Storm Drain at Sunset Beach, Lifeguard tower #4",,
MC40,Marshall Beach,,
MC110,McClures Beach,,
VC26000,McGrath State Beach (1/2 mile N. of Gonzales Rd.) (Through 2008),34.223129,-119.26231
VC28000,McGrath State Beach (South end of McGrath Lake) (Through 2008),34.208627,-119.255304
VC27000,McGrath State Beach- Gonzales Rd. (Through 2008),34.218764,-119.260305
MC320,McNears Beach,37.9926,-122.4526
MC30,Miller Park,38.1999,-122.9216
MC100,Millerton Point,38.1074,-122.8452
MB159,"Mission Bay, Bahia Point (upcoast 100 yards)",,
MB160,"Mission Bay, Bahia Point-northside (apex of Gleason Rd.)",32.775,-117.245
MB161,"Mission Bay, Bahia Point-swim area",,
MB111,"Mission Bay, Beach at La Cima",,
MB173,"Mission Bay, Bonita Cove (east cove)",32.769457,-117.247089
MB170,"Mission Bay, Bonita Cove (north cove)",32.7717,-117.2467
MB080,"Mission Bay, Campland (west of Rose Creek)",32.795,-117.2217
MB053,"Mission Bay, Comfort Station north of Leisure Lagoon",32.784189,-117.209189
MB100,"Mission Bay, Crown Point Shores",32.7833,-117.2317
MB101,"Mission Bay, Crown Point-watercraft area",,
MB070,"Mission Bay, DeAnza Cove (mid-cove)",32.796793,-117.214194
MB065,"Mission Bay, DeAnza Cove (other-upcoast distances vary)",,
MB071,"Mission Bay, DeAnza Cove, swim area",,
EH227,"Mission Bay, DeAnza western shore",,
MB120,"Mission Bay, Fanuel Park (proj. of Fanuel St.)",32.7917,-117.245
MB010,"Mission Bay, Fiesta Island Bridge (south side)",32.76824,-117.211421
MB085,"Mission Bay, Fiesta Island, NW shore",,
MB020,"Mission Bay, Hidden Anchorage",32.7733,-117.2217
MB050,"Mission Bay, Leisure Lagoon",32.781979,-117.210281
MB051,"Mission Bay, Leisure Lagoon (swim area)",,
MB225,"Mission Bay, Mariners Basin (proj. of Balboa Ct.)",32.76245,-117.24913
MB042,"Mission Bay, north Pacific Passage",,
MB190,"Mission Bay, Perez Cove",32.7683,-117.2317
MB180,"Mission Bay, Quivera Basin (w/basin) at Lifeguard station",32.7617,-117.24
MB110,"Mission Bay, Riviera Shores (proj. of La Cima Dr.)",32.7833,-117.24
MB130,"Mission Bay, Sail Bay (proj. of Whitting Ct.)",32.7883,-117.2517
MB140,"Mission Bay, San Juan Cove (west of boat launch)",32.7817,-117.25
MB150,"Mission Bay, Santa Barbara Cove (proj. Santa Barbara Pl.)",32.7717,-117.2483
MB151,"Mission Bay, Santa Barbara Cove-swim area",,
MB131,"Mission Bay, Santa Clara Cove (proj. Portsmouth Ct.)",32.7833,-117.2508
MB132,"Mission Bay, Santa Clara Cove, east",,
MB192,"Mission Bay, south Pacific Passage (e. outfall)",,
MB091,"Mission Bay, swim area adjacent to Wildlife Refuge",,
MB061,"Mission Bay, swim area at Visitor's Center",,
MB030,"Mission Bay, Tecolote Creek outlet",32.7717,-117.2083
MB031,"Mission Bay, Tecolote Playground (watercraft area)",32.770797,-117.209324
MB041,"Mission Bay, Tecolote Shores (swim area)",,
MB040,"Mission Bay, Tecolote Shores drain",32.776026,-117.210752
MB200,"Mission Bay, Vacation Isle (btwn Ingram St. and south cove)",32.7717,-117.235
MB205,"Mission Bay, Vacation Isle North Cove Beach",32.776039,-117.237694
MB203,"Mission Bay, Vacation Isle Ski Beach",32.77594,-117.2327964
MB223,"Mission Bay, Ventura Cove",32.77088,-117.24468
MB060,"Mission Bay, Visitor's Center (proj. of Clairemont Dr.)",32.788136,-117.209103
MB090,"Mission Bay, Wildlife Refuge near fence (proj. of Lamont St.)",32.7883,-117.2317
PL120,"Mission Beach, Belmont Park",32.77133,-117.2535
EH230,"Mission Beach, projection of Capistrano Place",32.76353,-117.25326
SFC220,Mission Creek Park at Mission Creek (new 2017),37.773774,-122.393289
SCC75,Mitchell's Cove Beach,36.95264,-122.041218
OSL25,Monarch Beach (North)  (Through March 2015),33.481728,-117.725366
OCR11,Monarch Beach (North) (point zero) (beginning March 2015),33.481728,-117.725366
OSL23,Monarch Beach (South),,
SMC60,"Montara State Beach, at Martini Creek",37.552999,-122.513858
MON20,Monterey Municipal Beach (at the commercial wharf),36.601747,-121.888697
MON10,Monterey State Beach,36.612529,-121.858199
SMB-O-3,Moonshadows Restaurant (just west) at 20340 PCH,,
CMB20,Moonstone Beach,,
HC30,Moonstone County Park (Little River State Beach),41.029721,-124.116009
SCC149,Moran Lake Beach,36.956229,-121.978417
SLOMB11,"Morro Bay City Beach, 75 feet north of main parking lot",35.37163679,-120.865258204
SLOMB12,"Morro Bay City Beach, Morro Creek (south side)",35.37618407,-120.864511079
SLOMB13,"Morro Bay City Beach, projection of Atascadero",35.37933009,-120.864718657
SLOMB14,"Morro Strand State Beach, projection of Beachcomber Dr.",35.398452,-120.868643
B22,Mother's Beach - Long Beach - north end,33.758654,-118.119644
B70,Mother's Beach - Long Beach - south end,33.757566,-118.118477
ONB43,Muddy Creek (Through March 2015),33.563961,-117.828234
OCR3,Muddy Creek Beach (Beginning March 2015),33.56396,-117.82836
MC210,"Muir Beach, Central",37.8593,-122.5763
MC200,"Muir Beach, North",37.8599,-122.5773
MC220,"Muir Beach, South",37.8581,-122.575
VC2700,Mussel Shoals Beach - north of pier (Through 2014),34.35606,-119.44343
VC3000,"Mussel Shoals Beach, south the drain (Through 2012)",34.355596,-119.441691
SCC70,Natural Bridges State Beach,36.949629,-122.057829
Men70,Navarro River Beach at Navarro Beach Rd.,,
SCC200,New Brighton Beach,36.978004,-121.938476
BNB17,"Newport Bay, 10th Street Beach",33.60631,-117.912706
BNB15,"Newport Bay, 15th Street Beach",33.60838,-117.92035
BNB14,"Newport Bay, 19th Street Beach",33.60898,-117.92571
BNB11,"Newport Bay, 33rd Street Beach",33.61683,-117.9311667
BNB10,"Newport Bay, 38th Street Beach",33.61834,-117.93426
BNB09,"Newport Bay, 43rd Street Beach",33.62082,-117.93664
BNB21,"Newport Bay, Abalone Avenue Beach",33.60415,-117.88799
BNB18,"Newport Bay, Alvarado/ Bay Isle Beach",33.60556,-117.9037
BNB05,"Newport Bay, Bayshore Beach",33.61259,-117.90758
BNB30,"Newport Bay, De Anza Beach",33.61683,-117.904
BNB31,"Newport Bay, Garnet Avenue Beach",33.60639,-117.89939
BNB34,"Newport Bay, Grand Canal",33.60576,-117.88877
BNB33,"Newport Bay, Harbor Patrol Beach at Bayside Drive",33.60226,-117.8828
BNB32,"Newport Bay, Lido Yacht Club Beach",33.60976,-117.91425
BNB22,"Newport Bay, N Street Beach",33.59875,-117.88257
BNB35,"Newport Bay, Newport Blvd Bridge",33.62,-117.9286667
BNB24E,"Newport Bay, Newport Dunes-East",33.61595,-117.89215
BNB24M,"Newport Bay, Newport Dunes-Middle",33.61515,-117.89376
BNB24N,"Newport Bay, Newport Dunes-North",33.61786,-117.89194
BNB24W,"Newport Bay, Newport Dunes-West",33.615607,-117.895088
BNB28,"Newport Bay, North Star Beach",33.6255,-117.8933333
BNB02,"Newport Bay, Onyx Avenue Beach",33.60871,-117.89053
BNB01,"Newport Bay, Park Avenue Beach",33.60578,-117.886
BNB29,"Newport Bay, Promontory Point",33.61316,-117.8991667
BNB12,"Newport Bay, Rhine Channel Beach",33.615,-117.9268333
BNB23,"Newport Bay, Rocky Point Beach",33.59489,-117.87813
BNB03,"Newport Bay, Ruby Avenue Beach",33.60833,-117.89493
BNB20,"Newport Bay, Sapphire Avenue Beach",33.604167,-117.893333
BNB25,"Newport Bay, Vaughns Launch",33.63078,-117.88566
BNB07,"Newport Bay, Via Genoa Beach",33.61495,-117.91957
OSC12,Newport Beach Pier,33.60959,-117.93094
ONB09,"Newport Beach, projection of 38th Street",33.6166,-117.937
ONB06,"Newport Beach, projection of 52nd/53rd Street",33.622048,-117.944442
ONB03,"Newport Beach, projection of Orange Street",33.626291,-117.953996
BNB26,"Newport Beach, Ski Zone",33.6395,-117.8863333
BNS02,"Newport Slough, Grant Street Beach",33.62733,-117.947252
BNS01,"Newport Slough, Lancaster/62nd Street Beach",33.6299,-117.9511391
DHS (009),Nicholas Beach- 100 feet west of lifeguard tower (through 10/04),,
SMB-4-1,Nicholas Beach at San Nicholas Canyon Creek mouth (point zero),34.041694,-118.915669
OSL10,North Aliso County Beach,33.51162,-117.75463
OCS2,North Beach (SERRA),,
SMB-2-11,North Westchester Storm Drain at Dockweiler State Beach,33.944358,-118.445158
SBC2,Ocean Beach,34.691556,-120.60458
SF21,Ocean Beach at Vicente St.,37.73782,-122.50825
PL100,"Ocean Beach Pier, northside at Newport Ave.",32.748653,-117.253271
SF20,"Ocean Beach, at Pacheco St.",37.74891,-122.50996
PL090,"Ocean Beach, Ocean Pier (proj. of Narragansett Av.)",32.746767,-117.254809
SFC110,"Ocean Beach, projection of Balboa Ave.",37.774963,-122.513399
PL080,"Ocean Beach, projection of Bermuda Ave.",32.737587,-117.255191
SFC120,"Ocean Beach, projection of Lincoln Way",37.763782,-122.512547
SFC130,"Ocean Beach, projection of Pacheco St.",37.749,-122.5095
SFC150,"Ocean Beach, projection of Sloat Blvd.",37.73556667,-122.507816666
SFC140,"Ocean Beach, projection of Vicente St.",37.73783333,-122.508066666
FM010,"Ocean Beach, San Diego River outlet (Dog Beach)",32.755674,-117.253066
PL110,"Ocean Beach, Stub Jetty",32.753935,-117.252845
SMB-3-5,Ocean Park Beach at Ashland Ave. drain (point zero),33.9965,-118.485271
OC030,"Oceanside, 500'N. of Loma Alta Creek outlet",33.177134,-117.370474
OC022,"Oceanside, Buccaneer Beach (at Loma Alta Crk.)",33.176014,-117.369491
EH480,"Oceanside, Buena Vista Lagoon outlet",33.163852,-117.359128
OC110,"Oceanside, Harbor Beach (projection Harbor Dr.)",33.20574,-117.39604
OC020,"Oceanside, projection of Cassidy Street",33.172717,-117.366302
OC040,"Oceanside, projection of Forster Street",33.182056,-117.374728
OC080,"Oceanside, projection of Pier View Way",33.193627,-117.384871
OC090,"Oceanside, projection of Surfrider Way",33.1965,-117.38687
OC050,"Oceanside, projection of Tyson Street",33.190213,-117.381859
EH490,"Oceanside, projection of Wisconsin Street",33.185935,-117.377842
OC100,"Oceanside, San Luis Rey River outlet",33.2022,-117.39229
OC010,"Oceanside, St. Malo Beach (downcoast from St. Malo Road)",33.167206,-117.361572
VC4000,Oil Piers Beach - south of drain,34.352287,-119.427939
HC15,Old Home Beach,41.057333,-124.142694
OLDE12,Olde Port Beach (Harford Beach)north,35.17767398,-120.748988595
OLDE11,Olde Port Beach (Harford Beach)south,35.17782586,-120.748223829
VC44000,Ormond Beach- Arnold Rd.,34.11952972,-119.16040802
VC42000,Ormond Beach- J Street drain,34.137953,-119.188234
VC43000,"Ormond Beach- Oxnard Industrial drain, 50 yds. no. of the drain",34.135497,-119.183862
VC29000,Oxnard Beach - 5th Street (south of drain),34.197725,-119.249292
VC31000,Oxnard Beach - Amalfi Way (south of drain) (Through 2008),34.184327,-119.242107
VC29500,Oxnard Beach - Channel Way (south of drain) (Through 2008),34.195057,-119.247927
VC30000,Oxnard Beach - Outrigger Way (south of drain),34.19013,-119.245227
VC32000,Oxnard Beach Park - Falkirk Ave. (south of drain),34.178618,-119.238994
VC33000,Oxnard Beach Park - Starfish Dr. (south of drain),34.176374,-119.237824
SMC210,Oyster Point,37.664077,-122.38333
FM020,"Pacific Beach, Crystal Pier (projection of Garnet)",32.796398,-117.257797
EH255,"Pacific Beach, P.B. Point (downcoast of Linda Way)",32.80772,-117.26622
EH254,"Pacific Beach, P.B. Point (other-distances vary 100 or 200)",32.8038,-117.2604
EH250,"Pacific Beach, projection of Grand Ave.",32.79451,-117.25701
EH253,"Pacific Beach, projection of Missouri St.",,
FM030,"Pacific Beach, Tourmaline Surf Park (proj. of Tourmaline St.)",32.80517,-117.262759
SCC260,Palm/Pajaro Dunes Beach,36.851804,-121.811799
LACSDB,"Palos Verdes (Bluff) Cove, Palos Verdes Estates (aka SMB-7-2)",33.792902,-118.407004
MC300,Paradise Cove,37.8941,-122.4575
SMB-1-7,Paradise Cove Pier at Ramirez Canyon Creek mouth (point zero),34.020244,-118.786556
DHS (006),"Paradise Cove, adjacent to westside of Pier (through 10/04)",,
ONB35,Pelican Point (Through March 2015),33.583399,-117.859626
OCR2,Pelican Point Beach (Beginning March 2015),33.58221,-117.85694
SMB-1-16,Pena Creek at Las Tunas County Beach,34.039059,-118.59665
VC23000,Peninsula Beach (Beach area N. of South Jetty),34.246366,-119.268449
SMC180,Pescadero State Beach at Pescadero Creek,37.274236,-122.410127
PICO23,"Pico Ave., San Simeon",35.614021,-121.147696
OCN12,Pico drain at North Beach (Point Zero) (Beginning March 2015),33.43147,-117.63287
SMC75,Pillar Point #8 Mavericks Beach Westpoint Ave.,37.498902,-122.495791
SMC105,Pillar Point #9 Harbor Beach (beginning 2018),37.502066,-122.47611
SMC100,Pillar Point Harbor #4,,
SMC110,Pillar Point Harbor Dock,37.50188737,-122.481176467
SMC90,"Pillar Point Harbor, Capistrano Ave Beach (# 5)",37.50367963,-122.484662473
SMC80,"Pillar Point Harbor, end of Westpoint Ave.(# 7)",37.501954,-122.492655
PB4,"Pismo Beach Pier, 40 feet south of the pier",35.138201,-120.644348
PB3,"Pismo Beach, projection of Ocean View",35.1359042,-120.642659845
PB5,"Pismo Beach, projection of Wadsworth Street",35.14103589,-120.645629766
SLOOC10,"Pismo State Beach, 2 miles south of Pier Ave., Post 4 (retired)",35.076249,-120.630213
SLOOC13,"Pismo State Beach, 330 yards no. of Pier Ave.",35.1083354,-120.632492673
SLOOC11,"Pismo State Beach, 571 yards south of Pier Avenue, end of Strand Way",35.10057356,-120.631298204
SLOOC12,"Pismo State Beach, projection of Pier Ave.",35.10542054,-120.631979157
SCC150,Pleasure Point Beach,36.958596,-121.967237
OCB15,Poche Beach,33.44078,-117.64579
OCN9,Poche Creek Ocean Interface (Point Zero) (Beginning March 2015),33.44059,-117.64559
PL040,"Point Loma, Lighthouse",32.665906,-117.244034
PL050,"Point Loma, Point Loma Treatment Plant",32.680862,-117.248535
VC45000,"Point Mugu Beach, adjacent to parking lot entry",34.088036,-119.0649
SMC170,Pomponio State Beach at Pomponio Creek,37.299858,-122.406659
VC41000,"Port Hueneme Beach Park, 50 yds. no.of the Pier",34.141494,-119.19471
LACSD3,"Portuguese Bend Cove, Rancho Palos Verdes (aka SMB-7-5)",33.735574,-118.35948
OCR8,Projection of Bluebird Canyon (point zero) (beginning March 2015),33.529463,-117.773716
OLB15,Projection of Bluebird Canyon (Through March 2015),33.529463,-117.773716
VC14000,Promenade Park- Figueroa St.,34.274475,-119.297403
VC17000,"Promenade Park- Holiday Inn, south of drain at California St.",34.275468,-119.293042
VC15000,Promenade Park- Redwood Apts.,34.275308,-119.295609
VC16000,Promenade Park-Oak Street (Through 2008),34.275478,-119.294724
Men25,Pudding Creek Lagoon,,
Men22,Pudding Creek Ocean Outlet,39.459052,-123.80984
DHS (004),"Puerco Beach, 25500 Pacific Coast Hwy (at lifeguard station) (through 10/04)",,
SMB-1-11,Puerco State Beach at creek mouth (point zero),34.031343,-118.714272
S3,Pulga Canyon storm drain- 50 yards east (through 10/04),,
S16,Redondo Municipal Pier - south side,33.838682,-118.391252
SMB-6-2,Redondo Municipal Pier 100 yards south,33.838,-118.391
SMB-O-7,"Redondo Municipal Pier, under the pier",,
S17,Redondo State Beach at Avenue I (through 10/04),,
SMB-6-3,Redondo State Beach at Sapphire Street,33.833838,-118.390816
DHS (116),Redondo State Beach at Topaz St. - north of jetty (aka SMB-6-4),33.832274,-118.390979
SBC6,Refugio State Beach,34.462861,-120.069333
VC1050,Rincon Beach- 100 yds. so. of the creek mouth (Through 2014),34.373782,-119.474876
VC1100,Rincon Beach- at the end of the footpath,34.375418,-119.473181
VC1000,"Rincon Beach, 25 yds. so. of the creek mouth",34.3732872,-119.476524353
SBC20,Rincon Beach@ creek mouth,34.373277,-119.476769
VC6000,"Rincon Parkway North, near camp space #20 (Through 2008)",34.331901,-119.40222
SCC220,Rio Del Mar Beach,36.968197,-121.906323
OCN17,Riviera Beach (Point Zero) (Beginning March 2015),33.40814,-117.60979
SMC30,Rockaway Beach at Calera Creek,37.611733,-122.496496
MC240,"Rodeo Beach, Central",37.8304,-122.5377
MC230,"Rodeo Beach, North",37.832,-122.5395
MC250,"Rodeo Beach, South",37.8296,-122.5365
SMC130,"Roosevelt Beach, south end of parking lot",37.487092,-122.455303
LACSD5,Royal Palms State Beach (aka SMB-7-6),33.717562,-118.322106
Men40,Russian Gulch Campground,,
SON50,Salmon Creek State Park Beach,38.34974267,-123.068369327
OSL02,Salt Creek Beach,33.480248,-117.724555
VC20000,San Buenaventura Beach- south of drain at Dover Ln.,34.263575,-119.275993
VC18000,San Buenaventura Beach- south of drain at Kalorama St.,34.273804,-119.288531
VC19000,San Buenaventura Beach- south of drain at San Jon Rd.,34.27217,-119.2854
VC21000,San Buenaventura Beach- south of drain at Weymouth Ln.,34.256856,-119.27175
MON30,San Carlos Beach at San Carlos Beach Park,36.60967,-121.895072
OSC05,San Clemente - North beach at Avenida Pico (20000' South Outfall),33.43068,-117.63196
OSC21,San Clemente at Avenida Calafia,33.4051,-117.6069
OSC23,San Clemente at Avenida Las Palmeras,33.39577,-117.60024
OSC09,San Clemente at El Portal drain (pt zero) (beginning 2018),33.426914,-117.628236
OCN15,San Clemente Pier drain (Point Zero) (Beginning March 2015),33.4193,-117.62059
OSC19,San Clemente Pier Lifeguard Building north,33.42079,-117.62141
OSC16,San Clemente South Linda Lane drain (pt zero) (beginning 2018),33.422183,-117.622308
OSC01,San Clemente Trafalgar Canyon  (Through March 2015),33.416139,-117.617677
OCR14,San Clemente Trafalgar Canyon (Point Zero) (Beginning March 2015),33.416139,-117.617677
EH120,"San Diego Bay, Bayside Park (projection of J Street)",32.62807,-117.10787
EH080,"San Diego Bay, Glorietta Bay Park at boat launch",32.67537,-117.16842
EH170,"San Diego Bay, Naval Training Center",,
EH210,"San Diego Bay, north of Kellogg St.",32.70921,-117.23678
EH200,"San Diego Bay, Shelter Island (Shoreline Beach Park)",32.71477,-117.2243
EH205,"San Diego Bay, Shelter Island Yacht Basin (proj. Bessemer St.)",32.7182,-117.233
EH090,"San Diego Bay, Silver Strand",32.63631,-117.141114
EH160,"San Diego Bay, Spanish Landing Park beach",32.72838,-117.20996
EH070,"San Diego Bay, Tidelands Park (proj. of Mullinix Dr.)",32.69041,-117.16435
SMC160,San Gregorio State Beach at San Gregorio Creek,37.322355,-122.40409
OCN5,San Juan Creek Ocean Interface (Point Zero) (Beginning March 2015),33.46155,-117.68411
SC020,"San Onofre State Beach, ""Old Man's""",33.37285,-117.565663
EH520,"San Onofre State Beach, San Mateo Creek outlet",33.385858,-117.595278
EH510,"San Onofre State Beach, San Onofre Creek outlet",33.38071,-117.57944
SC010,"San Onofre State Beach, Trail 6",33.378886,-117.572642
SSC22,San Simeon State Beach,,
SBC8,Sands @ Coal Oil Point,34.407624,-119.880083
ONB01,Santa Ana River (downcoast),33.628261,-117.957332
ONB00,Santa Ana River Mouth,33.62929,-117.95968
SCC110,Santa Cruz Main Beach at the Boardwalk,36.962683,-122.019798
SCC120,Santa Cruz Main Beach at the San Lorenzo River,36.963236,-122.013225
SCC105,Santa Cruz Main Beach at the Wharf,36.962154,-122.02238
SCCO470,Santa Cruz Main Beach Lifeguard Tower 2,36.962554,-122.020843
DHS (105),Santa Monica at Arizona (in front of the drain) (through 10/04)(now Wilshire),,
DHS (104),Santa Monica at Montana Ave. (25 yrds. so. of drain)  (through 10/04),,
SMB-3-1,Santa Monica Beach at Montana Ave. drain (point zero),34.019625,-118.510699
SMB-3-4,Santa Monica Beach at Pico/Kenter storm drain (point zero),34.005087,-118.493378
S6,Santa Monica Beach at Pico/Kenter storm drain (through 10/04),,
DHS (104a),Santa Monica Beach at San Vicente Bl.,,
DHS (106),Santa Monica Beach at Strand St. (in front of the restrooms) (aka SMB-3-9),34.002246,-118.490835
SMB-3-2,Santa Monica Beach at Wilshire Blvd. drain (point zero),34.014531,-118.50423
S4,"Santa Monica Canyon, Will Rogers State Beach (through 10/04)",,
SMB-3-3,Santa Monica Municipal Pier (point zero),34.00827,-118.497382
S5,Santa Monica Municipal Pier- 50 yards southeast (through 10/04),,
SMB-2-2,Santa Ynez drain at Sunset Blvd.,34.037836,-118.555778
MC290,Schoonmaker Beach,37.8639,-122.4895
SCC20,Scott Creek Beach at Scott Creek,37.038572,-122.229337
SCC130,Seabright Beach,36.962675,-122.008562
SCC210,Seacliff State Beach,36.971111,-121.913503
OSB05,"Seal Beach Pier, 100 yards south of pier",33.737786,-118.106239
OSB04,"Seal Beach, projection of 14th Street",33.736432,-118.102301
OSB02,"Seal Beach, projection of 1st Street",33.739604,-118.115318
OSB03,"Seal Beach, projection of 8th Street",33.7385,-118.108
VC12000,Seaside Wilderness Park (400 yards N. of Ventura River) (Through 2008),34.278815,-119.315923
SEW7,Sewers at Silver Shoals Dr.,35.166768,-120.694008
CMB19,Shamel Park,,
SMC20,"Sharp Park Beach, projection of Birch Ln.",37.631522,-122.494555
SMC10,"Sharp Park Beach, projection of San Jose Av.",37.634004,-122.494467
MC60,Shell Beach,38.1166,-122.8734
IB068,"Silver Strand - Guard Shack, Silver Strand State Beach",32.626401,-117.139424
IB069,"Silver Strand - Lifeguard Tower, Silver Strand State Beach",32.631769,-117.141885
VC38000,Silverstrand - San Nicholas Ave. (south of jetty),34.156775,-119.225454
VC39000,Silverstrand - Santa Paula Dr. (south of drain),34.152342,-119.220286
VC40000,Silverstrand - Sawtelle Ave. (south of drain),34.146697,-119.216623
SE010,"Solana Beach, Fletcher Cove (proj. Lomas Santa Fe Dr.)",32.991308,-117.27464
EH390,"Solana Beach, Seascape Surf Beach Park",32.98571,-117.27347
SE020,"Solana Beach, Tide Beach Park (proj. Solana Vista Dr.)",32.997808,-117.27659
VC9000,Solimar Beach- north (south of drain at the base of cypress tree) (Through 2008),34.31735611,-119.3669586
VC10000,Solimar Beach- south (end of east gate access road),34.310443,-119.358908
SMB-1-10,Solstice Canyon at Dan Blocker County Beach,34.032639,-118.742123
VC24000,South Jetty (Beach area S. of the jetty) (Through 2008),34.2451,-119.267958
MON60,"Spanish Bay (Moss Beach), end of 17 mile drive",36.608563,-121.95194
SPY6,Spyglass Dr. near Spyglass Park,35.15975286,-120.686008563
VC50000,"Staircase Beach, bottom of staircase",34.047312,-118.950846
SON30,Stillwater Cove Regional Park Beach,38.54690293,-123.297521637
MON70,"Stillwater Cove, at Beach and Tennis Club",36.566317,-121.943142
MC180,"Stinson Beach, Central",37.896011,-122.641444
MC170,"Stinson Beach, North",37.8972,-122.643
MC190,"Stinson Beach, South",37.8939,-122.6382
CAY13,Studio Drive parking lot near Old Creek,35.433,-120.888
SBC175,Summerland Beach,34.41939,-119.601604
SCC145,Sunny Cove Beach,36.960481,-121.989342
SCC250,Sunset Beach,36.895383,-121.839329
OSUB1,"Sunset Beach, projection of Broadway",33.71643,-118.07235
PL060,"Sunset Cliffs, downcoast of Newbreak Beach",32.6987,-117.256
PL070,"Sunset Cliffs, projection of Ladera Street",32.719459,-117.256957
SBC21,Surf Beach,,
VC25000,Surfer’s Knoll (Beach adjacent to parking lot),34.239653,-119.267427
VC13000,Surfer’s Point at Seaside (End of access path via wooden gate),34.27300644,-119.305030822
SMC120,"Surfer's Beach, southend of riprap",37.499736,-122.468995
S1,Surfrider Beach (breach point) (aka SMB-MC-2),34.034304,-118.678384
DHS (003a),Surfrider Beach (second point)- weekly,,
OSB01,"Surfside Beach, projection of Sea Way",33.726767,-118.08398
VC47000,"Sycamore Cove Beach, 50 yds. so. of the creek mouth",34.070303,-119.014257
OSL06,Table Rock,33.503634,-117.747716
VC46000,"Thornhill Broome Beach, adjacent to parking lot entry",34.0816,-119.033762
OSL03,Three Arch Bay,33.488958,-117.73599
SCC60,Three-mile Beach at Lombardi Creek,,
TJ030,"Tijuana River, Hollister Bridge",,
IB040,"Tijuana Slough NWRS, 3/4 mi. N of TJ River",32.56298,-117.132195
IB030,"Tijuana Slough NWRS, Tijuana Rivermouth",32.556141,-117.129047
S2,Topanga Beach at creek mouth (aka SMB-1-18),34.037813,-118.582608
SMB-6-5,Torrance Beach at Avenue I drain (point zero),33.819824,-118.391073
SMB-O-8,"Torrance Beach, projection of Via Riveria",,
EH353,"Torrey Pines, Anderson Canyon, proj. Carmel Valley Rd.",32.9421,-117.2623
FM100,"Torrey Pines, Los Penasquitos Lagoon outlet",32.934726,-117.260883
DHS (008),"Trancas Beach entrance, 50 yards east of Trancas Bridge (through 10/04)",,
OSL11,Treasure Island Beach,33.51339,-117.757089
OSL12,Treasure Island Pier,,
HC10,Trinidad State Beach near Mill Creek,41.061694,-124.148831
SMB-1-17,Tuna Canyon,34.03903,-118.58984
SCC140,Twin Lakes Beach,36.961509,-121.998108
SMB-O-2,"Unnamed Creek, adjacent to public stairway at 24822 Malibu Rd.",34.031426,-118.715974
SMB-O-1,"Unnamed Creek, projection of Zumirez Dr. (Little Dume)",34.013593,-118.791791
SMB-O-4,Unnamed pipe near Gladstones Restaurant,,
OHB01,Upcoast of Santa Ana River Mouth,33.629471,-117.960106
MC160,Upton Beach (Calle Del Ribera),,
Men60,Van Damme State Park at the Little River,39.273691,-123.791895
SMC140,Venice Beach at Frenchman's Creek,37.480008,-122.451502
DHS (107),Venice City Beach at Brooks Ave. drain (aka SMB-3-7),33.988974,-118.478767
DHS (109),Venice City Beach at Topsail St. (aka SMB-2-9),33.967282,-118.460483
S8,Venice City Beach at Windward Av.-  50 yards north (through 10/04),,
SMB-3-8,Venice City Beach at Windward Ave. drain (point zero),33.985178,-118.476696
SMB-3-6,"Venice City Beach, at the Rose Ave. storm drain",33.99323,-118.482381
DHS (108),Venice Fishing Pier- 50 yards south (aka SMB-2-8),33.977997,-118.467733
OCR9,Victoria Beach (point zero) (beginning March 2015),33.5192,-117.763
OLB14,Victoria Beach (Through March 2015),33.5192,-117.763
SCC10,Waddell Creek Beach at Waddell Creek,37.096256,-122.280073
SMB-1-6,"Walnut Creek outlet, projection of Wildlife Road",34.01691,-118.789731
OCN4,West Street (Point Zero) (Beginning March 2015),33.50415,-117.74812
DHS (007),"Westward Beach, east of Zuma Creek (through 10/04)",,
SMB-7-7,"White Point County Beach, at storm drain outlet",,
LACSD6,"Wilder Annex, San Pedro (aka SMB-7-8)",33.707601,-118.295355
DHS (103),Will Rogers State Beach - Temescal Canyon (25 yrds. so. of drain) (through 10/04),,
DHS (101),Will Rogers State Beach at 17200 PCH (1/4 mile east of Sunset drain) (aka SMB-2-3),34.039109,-118.550592
SMB-2-5,Will Rogers State Beach at Bel Air Bay Club drain near fence (point zero),34.038321,-118.545208
SMB-2-4,Will Rogers State Beach at Pulga Canyon storm drain (point zero),34.037545,-118.542837
SMB-2-7,Will Rogers State Beach at Santa Monica Canyon drain (point zero),34.026854,-118.520606
SMB-2-6,Will Rogers State Beach at Temescal Canyon drain (point zero),34.034713,-118.536603
EH270,"Windansea Beach, Playa Del Sur",,
EH280,"Windansea Beach, projection of Playa Del Norte",32.829408,-117.280843
SMB-1-5,Zuma Beach at Zuma Creek mouth (point zero),34.013671,-118.821603
MON15,Del Monte Beach,36.60104,-121.88727
MON90,Carmel River State Beach,36.53965,-121.93095
MON100,Julia Pfeiffer Burns State Beach,36.23801,-121.81553
MON130,Marina State Beach,36.69841,-121.80962
MON120,Moss Landing State Beach,36.80803,-121.78874
MON140,Seaside Beach,36.61535,-121.85452
MON110,Zmudowski State Beach,36.842,-121.807